[
  {
    "id": "Driver-1",
    "name": "Poor Peafowl",
    "car_id": "5a21682ba10a0",
    "current_location": {
      "latitude": 3.2168589874912,
      "longitude": 101.7360823989
    },
    "current_street": "Street-3"
  },
  {
    "id": "Driver-2",
    "name": "Lazy Loris",
    "car_id": "5a21682ba1128",
    "current_location": {
      "latitude": 3.2551721052932,
      "longitude": 101.7117021397
    },
    "current_street": "Street-9"
  },
  {
    "id": "Driver-3",
    "name": "Dizzy Dove",
    "car_id": "5a21682ba1190",
    "current_location": {
      "latitude": 3.1415603953017,
      "longitude": 101.65934943991
    },
    "current_street": "Street-9"
  },
  {
    "id": "Driver-4",
    "name": "Eternal Makeout of Magic",
    "car_id": "5a21682ba122f",
    "current_location": {
      "latitude": 3.2744433135102,
      "longitude": 101.77992067926
    },
    "current_street": "Street-2"
  },
  {
    "id": "Driver-5",
    "name": "Maniac Jungle Rangers",
    "car_id": "5a21682ba12d5",
    "current_location": {
      "latitude": 3.1338434564873,
      "longitude": 101.72120494493
    },
    "current_street": "Street-6"
  },
  {
    "id": "Driver-6",
    "name": "Astral Frisbee Challenge",
    "car_id": "5a21682ba1335",
    "current_location": {
      "latitude": 3.156625010182,
      "longitude": 101.68950774161
    },
    "current_street": "Street-6"
  },
  {
    "id": "Driver-7",
    "name": "Full Metal Nazi of Might and Magic",
    "car_id": "5a21682ba13c7",
    "current_location": {
      "latitude": 3.186905182494,
      "longitude": 101.68501369392
    },
    "current_street": "Street-9"
  },
  {
    "id": "Driver-8",
    "name": "Dull Dormouse",
    "car_id": "5a21682ba1435",
    "current_location": {
      "latitude": 3.2309964806117,
      "longitude": 101.63668707137
    },
    "current_street": "Street-2"
  },
  {
    "id": "Driver-9",
    "name": "Anxious Angelfish",
    "car_id": "5a21682ba14d3",
    "current_location": {
      "latitude": 3.0795056171974,
      "longitude": 101.70226071354
    },
    "current_street": "Street-1"
  },
  {
    "id": "Driver-10",
    "name": "Homeless Hornet",
    "car_id": "5a21682ba158a",
    "current_location": {
      "latitude": 3.2358862864324,
      "longitude": 101.59933905434
    },
    "current_street": "Street-2"
  },
  {
    "id": "Driver-11",
    "name": "The Glory of Amish Force",
    "car_id": "5a21682ba1615",
    "current_location": {
      "latitude": 3.2106257272359,
      "longitude": 101.74030450811
    },
    "current_street": "Street-9"
  },
  {
    "id": "Driver-12",
    "name": "National Lampoon's Flatulence Shack",
    "car_id": "5a21682ba16f5",
    "current_location": {
      "latitude": 3.165245727484,
      "longitude": 101.81771297872
    },
    "current_street": "Street-5"
  },
  {
    "id": "Driver-13",
    "name": "Important Iguana",
    "car_id": "5a21682ba1785",
    "current_location": {
      "latitude": 3.0857808482705,
      "longitude": 101.82970932898
    },
    "current_street": "Street-4"
  },
  {
    "id": "Driver-14",
    "name": "Homely Hamster",
    "car_id": "5a21682ba1833",
    "current_location": {
      "latitude": 3.1354911905042,
      "longitude": 101.76677731723
    },
    "current_street": "Street-1"
  },
  {
    "id": "Driver-15",
    "name": "My Little Gimp Brawl",
    "car_id": "5a21682ba18d1",
    "current_location": {
      "latitude": 3.1520254657945,
      "longitude": 101.61419089148
    },
    "current_street": "Street-7"
  },
  {
    "id": "Driver-16",
    "name": "Fair Fowl",
    "car_id": "5a21682ba1945",
    "current_location": {
      "latitude": 3.1277212303863,
      "longitude": 101.82063891962
    },
    "current_street": "Street-9"
  },
  {
    "id": "Driver-17",
    "name": "Elated Echidna",
    "car_id": "5a21682ba19e3",
    "current_location": {
      "latitude": 3.1350860299578,
      "longitude": 101.66392614939
    },
    "current_street": "Street-3"
  },
  {
    "id": "Driver-18",
    "name": "Energetic Eagle",
    "car_id": "5a21682ba1a83",
    "current_location": {
      "latitude": 3.1292945159949,
      "longitude": 101.63553670757
    },
    "current_street": "Street-9"
  },
  {
    "id": "Driver-19",
    "name": "Encouraging Elk",
    "car_id": "5a21682ba1b7a",
    "current_location": {
      "latitude": 3.1562686399671,
      "longitude": 101.70886327066
    },
    "current_street": "Street-3"
  },
  {
    "id": "Driver-20",
    "name": "Stupid Snake",
    "car_id": "5a21682ba1c63",
    "current_location": {
      "latitude": 3.2196454246754,
      "longitude": 101.75231956119
    },
    "current_street": "Street-5"
  },
  {
    "id": "Driver-21",
    "name": "Miracle Tricycle Demolition",
    "car_id": "5a21682ba1d31",
    "current_location": {
      "latitude": 3.1057078537059,
      "longitude": 101.66694989336
    },
    "current_street": "Street-4"
  },
  {
    "id": "Driver-22",
    "name": "Nighttime Fighter Agent",
    "car_id": "5a21682ba1e26",
    "current_location": {
      "latitude": 3.0304468469941,
      "longitude": 101.7411619027
    },
    "current_street": "Street-3"
  },
  {
    "id": "Driver-23",
    "name": "Bad Booby",
    "car_id": "5a21682ba1ef4",
    "current_location": {
      "latitude": 3.1030002088299,
      "longitude": 101.78862958689
    },
    "current_street": "Street-6"
  },
  {
    "id": "Driver-24",
    "name": "Open Octopus",
    "car_id": "5a21682ba1fd8",
    "current_location": {
      "latitude": 3.1525484419074,
      "longitude": 101.70234482926
    },
    "current_street": "Street-7"
  },
  {
    "id": "Driver-25",
    "name": "Yucky Yacare",
    "car_id": "5a21682ba20bd",
    "current_location": {
      "latitude": 3.1840203851253,
      "longitude": 101.59774142558
    },
    "current_street": "Street-3"
  },
  {
    "id": "Driver-26",
    "name": "Android Fighter Scam",
    "car_id": "5a21682ba224d",
    "current_location": {
      "latitude": 3.1506910675391,
      "longitude": 101.70251814821
    },
    "current_street": "Street-2"
  },
  {
    "id": "Driver-27",
    "name": "Magnificent Manatee",
    "car_id": "5a21682ba230b",
    "current_location": {
      "latitude": 3.1484701526039,
      "longitude": 101.70549144549
    },
    "current_street": "Street-1"
  },
  {
    "id": "Driver-28",
    "name": "Cyber Jetski II",
    "car_id": "5a21682ba23cd",
    "current_location": {
      "latitude": 3.0412212816859,
      "longitude": 101.76225526468
    },
    "current_street": "Street-3"
  },
  {
    "id": "Driver-29",
    "name": "Black Cookie of Death",
    "car_id": "5a21682ba2503",
    "current_location": {
      "latitude": 3.2180156435539,
      "longitude": 101.79305017704
    },
    "current_street": "Street-5"
  },
  {
    "id": "Driver-30",
    "name": "Brainy Bat",
    "car_id": "5a21682ba25cb",
    "current_location": {
      "latitude": 3.2725837762109,
      "longitude": 101.78290582388
    },
    "current_street": "Street-8"
  },
  {
    "id": "Driver-31",
    "name": "Summer Lizard Yoga",
    "car_id": "5a21682ba26e3",
    "current_location": {
      "latitude": 3.1636306433085,
      "longitude": 101.69793869869
    },
    "current_street": "Street-3"
  },
  {
    "id": "Driver-32",
    "name": "Better Beetle",
    "car_id": "5a21682ba27af",
    "current_location": {
      "latitude": 3.0293459761646,
      "longitude": 101.69366765278
    },
    "current_street": "Street-8"
  },
  {
    "id": "Driver-33",
    "name": "Heavy Metal Writing Madness",
    "car_id": "5a21682ba2882",
    "current_location": {
      "latitude": 3.0462867097527,
      "longitude": 101.66546349748
    },
    "current_street": "Street-8"
  },
  {
    "id": "Driver-34",
    "name": "Handsome Heron",
    "car_id": "5a21682ba2909",
    "current_location": {
      "latitude": 3.2262893851052,
      "longitude": 101.74653417609
    },
    "current_street": "Street-8"
  },
  {
    "id": "Driver-35",
    "name": "Eco-Friendly Zombie Underground",
    "car_id": "5a21682ba29bf",
    "current_location": {
      "latitude": 3.1828557190838,
      "longitude": 101.65895177136
    },
    "current_street": "Street-6"
  },
  {
    "id": "Driver-36",
    "name": "Drug-Induced Grizzly Bear Showdown",
    "car_id": "5a21682ba2aa9",
    "current_location": {
      "latitude": 3.1766627522743,
      "longitude": 101.79995002212
    },
    "current_street": "Street-10"
  },
  {
    "id": "Driver-37",
    "name": "History of the Dog Solid",
    "car_id": "5a21682ba2b2a",
    "current_location": {
      "latitude": 3.1455135000115,
      "longitude": 101.6703318395
    },
    "current_street": "Street-10"
  },
  {
    "id": "Driver-38",
    "name": "Easy Earthworm",
    "car_id": "5a21682ba2ba2",
    "current_location": {
      "latitude": 3.1011007509014,
      "longitude": 101.57052564373
    },
    "current_street": "Street-2"
  },
  {
    "id": "Driver-39",
    "name": "Lonely Lion",
    "car_id": "5a21682ba2c18",
    "current_location": {
      "latitude": 3.1149389319815,
      "longitude": 101.62464833689
    },
    "current_street": "Street-7"
  },
  {
    "id": "Driver-40",
    "name": "Funny Finch",
    "car_id": "5a21682ba2c93",
    "current_location": {
      "latitude": 3.0725523298714,
      "longitude": 101.6450854718
    },
    "current_street": "Street-9"
  },
  {
    "id": "Driver-41",
    "name": "Unholy Katana DJ",
    "car_id": "5a21682ba2d0c",
    "current_location": {
      "latitude": 3.2919274404858,
      "longitude": 101.68036646465
    },
    "current_street": "Street-4"
  },
  {
    "id": "Driver-42",
    "name": "Aero Chicken On The Road",
    "car_id": "5a21682ba2d6f",
    "current_location": {
      "latitude": 3.1721897226794,
      "longitude": 101.78736731095
    },
    "current_street": "Street-7"
  },
  {
    "id": "Driver-43",
    "name": "Gentle Gerenuk",
    "car_id": "5a21682ba2de2",
    "current_location": {
      "latitude": 3.1466598932814,
      "longitude": 101.75865972608
    },
    "current_street": "Street-9"
  },
  {
    "id": "Driver-44",
    "name": "Looney Tunes Goblin in the Magic Kingdom",
    "car_id": "5a21682ba2e48",
    "current_location": {
      "latitude": 3.159681064352,
      "longitude": 101.7043414881
    },
    "current_street": "Street-2"
  },
  {
    "id": "Driver-45",
    "name": "Zombie NASCAR in Vegas",
    "car_id": "5a21682ba2eb8",
    "current_location": {
      "latitude": 3.2404346396388,
      "longitude": 101.75311555503
    },
    "current_street": "Street-5"
  },
  {
    "id": "Driver-46",
    "name": "Joyous Jaguar",
    "car_id": "5a21682ba2f29",
    "current_location": {
      "latitude": 3.1634411171378,
      "longitude": 101.69291496812
    },
    "current_street": "Street-2"
  },
  {
    "id": "Driver-47",
    "name": "Bionic Blade Blast",
    "car_id": "5a21682ba2f88",
    "current_location": {
      "latitude": 3.1293350253379,
      "longitude": 101.68628041351
    },
    "current_street": "Street-2"
  },
  {
    "id": "Driver-48",
    "name": "Italian Hair Salon Returns",
    "car_id": "5a21682ba2fee",
    "current_location": {
      "latitude": 3.2030092261615,
      "longitude": 101.68163202211
    },
    "current_street": "Street-8"
  },
  {
    "id": "Driver-49",
    "name": "Teenage Limbo Creator",
    "car_id": "5a21682ba305f",
    "current_location": {
      "latitude": 3.0831817639907,
      "longitude": 101.69195092116
    },
    "current_street": "Street-7"
  },
  {
    "id": "Driver-50",
    "name": "Manic Chef Base",
    "car_id": "5a21682ba30cd",
    "current_location": {
      "latitude": 3.1213915452,
      "longitude": 101.6135275456
    },
    "current_street": "Street-5"
  },
  {
    "id": "Driver-51",
    "name": "Smoggy Stoat",
    "car_id": "5a21682ba317d",
    "current_location": {
      "latitude": 3.0994400604219,
      "longitude": 101.74524786389
    },
    "current_street": "Street-5"
  },
  {
    "id": "Driver-52",
    "name": "Ugliest Unicorn",
    "car_id": "5a21682ba3250",
    "current_location": {
      "latitude": 3.1931913163874,
      "longitude": 101.83624594937
    },
    "current_street": "Street-1"
  },
  {
    "id": "Driver-53",
    "name": "Calm Cow",
    "car_id": "5a21682ba3322",
    "current_location": {
      "latitude": 3.2026695258198,
      "longitude": 101.81629700972
    },
    "current_street": "Street-10"
  },
  {
    "id": "Driver-54",
    "name": "British Cannibal Bandits",
    "car_id": "5a21682ba33be",
    "current_location": {
      "latitude": 3.1244371051564,
      "longitude": 101.68248327827
    },
    "current_street": "Street-3"
  },
  {
    "id": "Driver-55",
    "name": "In Search of Rabbit Training",
    "car_id": "5a21682ba34b9",
    "current_location": {
      "latitude": 3.0397067674301,
      "longitude": 101.76676182035
    },
    "current_street": "Street-1"
  },
  {
    "id": "Driver-56",
    "name": "Fantastic Ferret",
    "car_id": "5a21682ba35a5",
    "current_location": {
      "latitude": 3.0301571780053,
      "longitude": 101.68907863928
    },
    "current_street": "Street-10"
  },
  {
    "id": "Driver-57",
    "name": "Great Vampire Sisters",
    "car_id": "5a21682ba3658",
    "current_location": {
      "latitude": 3.1652734268991,
      "longitude": 101.76769885866
    },
    "current_street": "Street-3"
  },
  {
    "id": "Driver-58",
    "name": "Pleasant Puma",
    "car_id": "5a21682ba370e",
    "current_location": {
      "latitude": 3.149504406287,
      "longitude": 101.715638712
    },
    "current_street": "Street-3"
  },
  {
    "id": "Driver-59",
    "name": "Happy Horse",
    "car_id": "5a21682ba377f",
    "current_location": {
      "latitude": 3.0928423293186,
      "longitude": 101.72017186842
    },
    "current_street": "Street-5"
  },
  {
    "id": "Driver-60",
    "name": "Queen of the Cheese Park",
    "car_id": "5a21682ba382a",
    "current_location": {
      "latitude": 3.0917831252771,
      "longitude": 101.61091072807
    },
    "current_street": "Street-4"
  },
  {
    "id": "Driver-61",
    "name": "Brave Beaver",
    "car_id": "5a21682ba38d3",
    "current_location": {
      "latitude": 3.1942708840206,
      "longitude": 101.78546730275
    },
    "current_street": "Street-6"
  },
  {
    "id": "Driver-62",
    "name": "Strange Serval",
    "car_id": "5a21682ba3952",
    "current_location": {
      "latitude": 3.1551412373557,
      "longitude": 101.70271934151
    },
    "current_street": "Street-6"
  },
  {
    "id": "Driver-63",
    "name": "Exciting Pokemon Solid",
    "car_id": "5a21682ba3a30",
    "current_location": {
      "latitude": 3.0213425533595,
      "longitude": 101.68169469523
    },
    "current_street": "Street-4"
  },
  {
    "id": "Driver-64",
    "name": "In Search of the Dragon Agent",
    "car_id": "5a21682ba3b3e",
    "current_location": {
      "latitude": 3.0720597022949,
      "longitude": 101.74781840511
    },
    "current_street": "Street-3"
  },
  {
    "id": "Driver-65",
    "name": "The Six Million Dollar Elevator Factory",
    "car_id": "5a21682ba3c26",
    "current_location": {
      "latitude": 3.1308779906784,
      "longitude": 101.68377614774
    },
    "current_street": "Street-9"
  },
  {
    "id": "Driver-66",
    "name": "Combative Caiman",
    "car_id": "5a21682ba3d4b",
    "current_location": {
      "latitude": 3.1487349198086,
      "longitude": 101.72256193216
    },
    "current_street": "Street-3"
  },
  {
    "id": "Driver-67",
    "name": "Frail Flamingo",
    "car_id": "5a21682ba3e07",
    "current_location": {
      "latitude": 3.175382990499,
      "longitude": 101.6465021907
    },
    "current_street": "Street-4"
  },
  {
    "id": "Driver-68",
    "name": "Impossible Iguana",
    "car_id": "5a21682ba3f1f",
    "current_location": {
      "latitude": 3.1712056128357,
      "longitude": 101.6652222298
    },
    "current_street": "Street-5"
  },
  {
    "id": "Driver-69",
    "name": "Gleaming Gnat",
    "car_id": "5a21682ba3fa4",
    "current_location": {
      "latitude": 3.0772013471286,
      "longitude": 101.67786512424
    },
    "current_street": "Street-7"
  },
  {
    "id": "Driver-70",
    "name": "Upset Unicorn",
    "car_id": "5a21682ba4050",
    "current_location": {
      "latitude": 3.284982053852,
      "longitude": 101.72251769973
    },
    "current_street": "Street-8"
  },
  {
    "id": "Driver-71",
    "name": "Annoyed Ape",
    "car_id": "5a21682ba4125",
    "current_location": {
      "latitude": 3.1244932974114,
      "longitude": 101.77725806576
    },
    "current_street": "Street-10"
  },
  {
    "id": "Driver-72",
    "name": "Crazy Acid Maxx",
    "car_id": "5a21682ba41e3",
    "current_location": {
      "latitude": 3.1752637367405,
      "longitude": 101.59132868922
    },
    "current_street": "Street-3"
  },
  {
    "id": "Driver-73",
    "name": "Clean Civet",
    "car_id": "5a21682ba42a6",
    "current_location": {
      "latitude": 3.1796993002193,
      "longitude": 101.67403223206
    },
    "current_street": "Street-7"
  },
  {
    "id": "Driver-74",
    "name": "Super Skylark",
    "car_id": "5a21682ba4348",
    "current_location": {
      "latitude": 3.1053294251232,
      "longitude": 101.62209984508
    },
    "current_street": "Street-10"
  },
  {
    "id": "Driver-75",
    "name": "Victorious Vicu\u00f1a",
    "car_id": "5a21682ba43f2",
    "current_location": {
      "latitude": 3.1625045657176,
      "longitude": 101.69061456554
    },
    "current_street": "Street-6"
  },
  {
    "id": "Driver-76",
    "name": "Frail Fish",
    "car_id": "5a21682ba44ad",
    "current_location": {
      "latitude": 3.1714138591322,
      "longitude": 101.71159113929
    },
    "current_street": "Street-9"
  },
  {
    "id": "Driver-77",
    "name": "Bright Batfish",
    "car_id": "5a21682ba453d",
    "current_location": {
      "latitude": 3.1415077366366,
      "longitude": 101.70616010749
    },
    "current_street": "Street-3"
  },
  {
    "id": "Driver-78",
    "name": "Nudist Unicorn Gladiator",
    "car_id": "5a21682ba4646",
    "current_location": {
      "latitude": 3.0550324638491,
      "longitude": 101.74731389933
    },
    "current_street": "Street-8"
  },
  {
    "id": "Driver-79",
    "name": "Electric Thunder Boxing",
    "car_id": "5a21682ba46f8",
    "current_location": {
      "latitude": 3.203798675598,
      "longitude": 101.78048538612
    },
    "current_street": "Street-4"
  },
  {
    "id": "Driver-80",
    "name": "Famous Falcon",
    "car_id": "5a21682ba47de",
    "current_location": {
      "latitude": 3.1302247997954,
      "longitude": 101.6853741031
    },
    "current_street": "Street-7"
  },
  {
    "id": "Driver-81",
    "name": "Careful Crayfish",
    "car_id": "5a21682ba4894",
    "current_location": {
      "latitude": 3.1527433715314,
      "longitude": 101.71001021624
    },
    "current_street": "Street-9"
  },
  {
    "id": "Driver-82",
    "name": "New Pogo Operatives",
    "car_id": "5a21682ba4916",
    "current_location": {
      "latitude": 3.0538474276134,
      "longitude": 101.68041163762
    },
    "current_street": "Street-4"
  },
  {
    "id": "Driver-83",
    "name": "We Love Chocobo World Tour",
    "car_id": "5a21682ba49c7",
    "current_location": {
      "latitude": 3.1718476323065,
      "longitude": 101.72424260394
    },
    "current_street": "Street-4"
  },
  {
    "id": "Driver-84",
    "name": "Breakable Bison",
    "car_id": "5a21682ba4a6f",
    "current_location": {
      "latitude": 3.1505680934408,
      "longitude": 101.73721815318
    },
    "current_street": "Street-5"
  },
  {
    "id": "Driver-85",
    "name": "Profane Monkey Superstar",
    "car_id": "5a21682ba4b11",
    "current_location": {
      "latitude": 3.1326286757421,
      "longitude": 101.69689531891
    },
    "current_street": "Street-4"
  },
  {
    "id": "Driver-86",
    "name": "Combative Cow",
    "car_id": "5a21682ba4b8e",
    "current_location": {
      "latitude": 3.2201909881008,
      "longitude": 101.60984781235
    },
    "current_street": "Street-5"
  },
  {
    "id": "Driver-87",
    "name": "Violent Car Anarchy",
    "car_id": "5a21682ba4c29",
    "current_location": {
      "latitude": 3.0831511178857,
      "longitude": 101.78325197378
    },
    "current_street": "Street-10"
  },
  {
    "id": "Driver-88",
    "name": "Wide-eyed Weasel",
    "car_id": "5a21682ba4cd1",
    "current_location": {
      "latitude": 3.2157892006799,
      "longitude": 101.75328044521
    },
    "current_street": "Street-5"
  },
  {
    "id": "Driver-89",
    "name": "Fair Flamingo",
    "car_id": "5a21682ba4d4a",
    "current_location": {
      "latitude": 3.0408693854762,
      "longitude": 101.73080547872
    },
    "current_street": "Street-3"
  },
  {
    "id": "Driver-90",
    "name": "Canadian Mech Kid",
    "car_id": "5a21682ba4de4",
    "current_location": {
      "latitude": 3.1607879592467,
      "longitude": 101.66862672637
    },
    "current_street": "Street-8"
  },
  {
    "id": "Driver-91",
    "name": "Talented Toucan",
    "car_id": "5a21682ba4e94",
    "current_location": {
      "latitude": 3.1660042419232,
      "longitude": 101.67757585664
    },
    "current_street": "Street-1"
  },
  {
    "id": "Driver-92",
    "name": "Shadow of the Grizzly Bear Maxx",
    "car_id": "5a21682ba4ef5",
    "current_location": {
      "latitude": 3.1313130897148,
      "longitude": 101.69737962201
    },
    "current_street": "Street-8"
  },
  {
    "id": "Driver-93",
    "name": "Energetic Echidna",
    "car_id": "5a21682ba4f95",
    "current_location": {
      "latitude": 3.0533436028614,
      "longitude": 101.66951711823
    },
    "current_street": "Street-5"
  },
  {
    "id": "Driver-94",
    "name": "In Your Face Landmine - The Next Generation",
    "car_id": "5a21682ba5004",
    "current_location": {
      "latitude": 3.130652479608,
      "longitude": 101.72416235081
    },
    "current_street": "Street-4"
  },
  {
    "id": "Driver-95",
    "name": "Kirby's Goblin Tribe",
    "car_id": "5a21682ba509c",
    "current_location": {
      "latitude": 3.0374411933713,
      "longitude": 101.73515468038
    },
    "current_street": "Street-2"
  },
  {
    "id": "Driver-96",
    "name": "Wide-eyed Wombat",
    "car_id": "5a21682ba5141",
    "current_location": {
      "latitude": 3.170329662129,
      "longitude": 101.74009698219
    },
    "current_street": "Street-3"
  },
  {
    "id": "Driver-97",
    "name": "Blue Booby",
    "car_id": "5a21682ba51e3",
    "current_location": {
      "latitude": 3.134030503879,
      "longitude": 101.69528739871
    },
    "current_street": "Street-1"
  },
  {
    "id": "Driver-98",
    "name": "Hungry Hyena",
    "car_id": "5a21682ba525a",
    "current_location": {
      "latitude": 3.1162911128754,
      "longitude": 101.8126759118
    },
    "current_street": "Street-10"
  },
  {
    "id": "Driver-99",
    "name": "Testy Tortoise",
    "car_id": "5a21682ba52e0",
    "current_location": {
      "latitude": 3.1055011229314,
      "longitude": 101.74438299621
    },
    "current_street": "Street-10"
  },
  {
    "id": "Driver-100",
    "name": "Silly Skunk",
    "car_id": "5a21682ba538f",
    "current_location": {
      "latitude": 3.2047225998043,
      "longitude": 101.68123180459
    },
    "current_street": "Street-9"
  }
]